{
  "1n2d":[
    {
      "courseName": "추천1",
      "days":[
        {
          "day": 1,
          "plans": [
            {
              "contents_id": "CNTS_200000000007625",
              "contents_label": "관광지",
              "title": "도두동 무지개 해안도로",
              "road_address": "제주시 도두1동",
              "introduction": "용담이호해안도로에서 도두동 가는 방향에 위치한 곳으로 방호벽이 무지개 색으로 페인팅되어 있다.",
              "latitude": 33.509311,
              "longitude": 126.473933
            },
            {
              "contents_id": "CNTS_000000000020099",
              "contents_label": "음식점",
              "title": "올래국수",
              "road_address": "제주시 귀아랑길 24 (연동)",
              "introduction": "제주 향토 음식인 고기국수 전문점이다. 2016 KOREAT JEJU TOP 10 선정",
              "latitude": 33.4915,
              "longitude": 126.4973
            },
            {
              "contents_id": "CONT_000000000500425",
              "contents_label": "관광지",
              "title": "애월해안도로",
              "road_address": "제주시 애월읍 애월해안로",
              "introduction": "도보, 자전거, 자동차 뭐든 좋은 서부해안도로",
              "latitude": 33.47822,
              "longitude": 126.36656
            },
            {
              "contents_id": "CONT_000000000500697",
              "contents_label": "관광지",
              "title": "협재해수욕장",
              "road_address": "제주시 한림읍 한림로 329-10",
              "introduction": "비양도, 은모래, 바다가 그려낸 그림같이 아름다운 해변",
              "latitude": 33.393845,
              "longitude": 126.239716
            },
            {
              "contents_id": "CNTS_200000000012631",
              "contents_label": "음식점",
              "title": "안녕협재씨",
              "road_address": "제주시 한림읍 협재1길 55",
              "introduction": "협재포구 앞에 위치한 비빔밥 전문점 안녕협재씨는 신선한 바다 재료와 특제소스가 만들어내는 즐겁고 건강한 조화로 건강한 한끼를 제공한다.",
              "latitude": 33.3989739,
              "longitude": 126.2454361
            },
            {
              "contents_id": "CONT_000000000500457",
              "contents_label": "관광지",
              "title": "오설록티뮤지엄",
              "road_address": "서귀포시 안덕면 신화역사로 15",
              "introduction": "제주녹차문화의 중심, 차박물관과 카페테리아, 2016 KOREAT JEJU TOP 30 선정",
              "latitude": 33.306394,
              "longitude": 126.29052
            }
          ]
        },
        {
          "day": 2,
          "plans": [
            {
              "contents_id": "CONT_000000000500618",
              "contents_label": "관광지",
              "title": "천지연폭포",
              "road_address": "서귀포시 남성중로 2-15",
              "introduction": "하늘과 땅이 만나서 이룬 연못, 천연기념물 제163호, 천연기념물 제27호, 올레6코스",
              "latitude": 33.244717,
              "longitude": 126.55982
            },
            {
              "contents_id": "CNTS_000000000020143",
              "contents_label": "음식점",
              "title": "고집돌우럭(제주공항점)",
              "road_address": "제주시 임항로 30",
              "introduction": "오직 제주도에서만 먹을 수 있는 탱글탱글한 돌우럭 조림",
              "latitude": 33.5163432,
              "longitude": 126.5281752
            }
          ]
        }
      ]
    },
    {
      "courseName": "추천2",
      "days":[
        {
          "day": 1,
          "plans": [
            {
              "contents_id": "CNTS_000000000020384",
              "contents_label": "음식점",
              "title": "이춘옥원조고등어쌈밥",
              "road_address": "제주시 애월읍 일주서로 7213",
              "introduction": "애월바다 앞 고등어쌈밥과 통갈치구이 전문점",
              "latitude": 33.488953,
              "longitude": 126.41871
            },
            {
              "contents_id": "CNTS_000000000020139",
              "contents_label": "관광지",
              "title": "제주레일바이크",
              "road_address": "제주시 구좌읍 용눈이오름로 641",
              "introduction": "천천히 구좌읍의 풍경을 담는 여행",
              "latitude": 33.464674,
              "longitude": 126.836966
            },
            {
              "contents_id": "CNTS_000000000018413",
              "contents_label": "관광지",
              "title": "광치기해변",
              "road_address": "서귀포시 성산읍 섭지코지로 63",
              "introduction": "성산일출봉과 독특한 해안지형이 어우러져 이색적인 풍광을 간직한 곳",
              "latitude": 33.452453,
              "longitude": 126.924581
            },
            {
              "contents_id": "CNTS_000000000020477",
              "contents_label": "음식점",
              "title": "신산리마을카페",
              "road_address": "서귀포시 성산읍 환해장성로 33",
              "introduction": "돌고래가 뛰노는 바다가 보이는 신산리의 작은 카페",
              "latitude": 33.37661,
              "longitude": 126.876945
            }
          ]
        },
        {
          "day": 2,
          "plans": [
            {
              "contents_id": "CNTS_300000000015724",
              "contents_label": "음식점",
              "title": "올레 흑돼지 김치말이",
              "road_address": "서귀포시 중정로61번길 20",
              "introduction": "돌돌말린 꽉 찬 맛의 흑돼지 김치말이",
              "latitude": 33.2495636,
              "longitude": 126.5630367
            },
            {
              "contents_id": "CONT_000000000500531",
              "contents_label": "관광지",
              "title": "정방폭포",
              "road_address": "서귀포시 칠십리로214번길 37",
              "introduction": "높은곳에서 바다로 떨어지는 물줄기의 시원함, 명승 제43호, 올레6코스",
              "latitude": 33.244854,
              "longitude": 126.5718
            },
            {
              "contents_id": "CNTS_200000000009011",
              "contents_label": "음식점",
              "title": "허니문하우스",
              "road_address": "서귀포시 칠십리로 228-13",
              "introduction": "유럽풍 건축물과 파노라마로 펼쳐지는 바다 경관을 보며 즐기는 베이커리 카페",
              "latitude": 33.2458822,
              "longitude": 126.578581
            },
            {
              "contents_id": "CONT_000000000500618",
              "contents_label": "관광지",
              "title": "천지연폭포",
              "road_address": "서귀포시 남성중로 2-15",
              "introduction": "하늘과 땅이 만나서 이룬 연못, 천연기념물 제163호, 천연기념물 제27호, 올레6코스",
              "latitude": 33.244717,
              "longitude": 126.55982            
            },
            {
              "contents_id": "CONT_000000000500068",
              "contents_label": "관광지",
              "title": "군산(군산오름,코메오름)",
              "road_address": "서귀포시 안덕면 창천리 564",
              "introduction": "황홀한 저녁 노을을 바라보며, 패러글라이딩을 즐길 수 있는 곳, 올레8코스",
              "latitude": 33.25584,
              "longitude": 126.370255            
            },
            {
              "contents_id": "CNTS_000000000001097",
              "contents_label": "음식점",
              "title": "대기정",
              "road_address": "서귀포시 이어도로 41",
              "introduction": "취향에 따라 고르는 제주 음식",
              "latitude": 33.24031,
              "longitude": 126.428665            
            },
            {
              "contents_id": "CONT_000000000500327",
              "contents_label": "관광지",
              "title": "서귀포자연휴양림",
              "road_address": "서귀포시 1100로 882",
              "introduction": "다양한 생태계를 보여주고 뚜렷한 계절적 감각을 느낄 수 있는 제주권 최고의 휴양림",
              "latitude": 33.31167,
              "longitude": 126.45876            
            },
            {
              "contents_id": "CNTS_000000000021772",
              "contents_label": "관광지",
              "title": "1100고지(휴게소)",
              "road_address": "서귀포시 1100로 1555",
              "introduction": "겨울이면 더욱 아름다운 한라산 대표적인 뷰포인트",
              "latitude": 33.339912,
              "longitude": 126.43682            
            },
            {
              "contents_id": "CONT_000000000500396",
              "contents_label": "관광지",
              "title": "신비의도로",
              "road_address": "제주시 1100로 2894-63",
              "introduction": "세워둔 차가 언덕 위로 올라가는 신비한 도깨비 도로",
              "latitude": 33.451225,
              "longitude": 126.487305            
            },
            {
              "contents_id": "CNTS_300000000015700",
              "contents_label": "음식점",
              "title": "삼미횟집",
              "road_address": "제주시 도두항서5길 1",
              "introduction": "도두항을 20년 동안 지켜온 삼미횟집만의 싱싱한 회한상",
              "latitude": 33.504607,
              "longitude": 126.4637795            
            },
            {
              "contents_id": "CNTS_200000000014689",
              "contents_label": "음식점",
              "title": "시로코",
              "road_address": "제주시 용마서1길 27-7",
              "introduction": "바다 바로 앞 포근한 분위기의 카페",
              "latitude": 33.5163391,
              "longitude": 126.504765            
            }
          ]
        }
      ]
    },
    {
      "courseName": "추천3",
      "days":[
        {
          "day": 1,
          "plans": [
            {
              "contents_id": "CONT_000000000501174",
              "contents_label": "음식점",
              "title": "그옛맛",
              "road_address": "제주시 서사로24길 12",
              "introduction": "전통의 맛을 느낄 수 있는 돌솥밥전문점",
              "latitude": 33.498505,
              "longitude": 126.51864            
            },
            {
              "contents_id": "CNTS_300000000012967",
              "contents_label": "축제/행사",
              "title": "스누피가든 BE KIND TO ANIMALS WEEK",
              "road_address": "제주시 구좌읍 금백조로 930",
              "introduction": "사랑스러운 반려동물과 함께 봄 나들이를 즐길 수 있는 스누피가든",
              "latitude": 33.4435555,
              "longitude": 126.7785412            
            },
            {
              "contents_id": "CNTS_200000000009501",
              "contents_label": "관광지",
              "title": "궁대오름(궁대악)",
              "road_address": "서귀포시 성산읍 금백조로 446",
              "introduction": "",
              "latitude": 33.440562,
              "longitude": 126.822089            
            },
            {
              "contents_id": "CNTS_000000000000978",
              "contents_label": "관광지",
              "title": "성산항",
              "road_address": "서귀포시 성산읍 성산등용로 129-21",
              "introduction": "섬 속의 섬을 향한 시작. 푸른 바다의 아름다운 뱃길",
              "latitude": 33.472112,
              "longitude": 126.933198            
            },
            {
              "contents_id": "CONT_000000000500477",
              "contents_label": "관광지",
              "title": "우도(해양도립공원)",
              "road_address": "제주시 우도면 삼양고수물길 1",
              "introduction": "소가 누워있는 형상을 하고 있는 제주의 가장 큰 부속섬",
              "latitude": 33.51949,
              "longitude": 126.95109            
            },
            {
              "contents_id": "CNTS_000000000018578",
              "contents_label": "음식점",
              "title": "하하호호(HAHAHOHO)",
              "road_address": "제주시 우도면 우도해안길 532",
              "introduction": "우도 북쪽, 우도 본연의 분위기가 살아있는 흑돼지 수제 햄버거집",
              "latitude": 33.50332,
              "longitude": 126.95568            
            },
            {
              "contents_id": "CNTS_000000000020064",
              "contents_label": "음식점",
              "title": "블랑로쉐",
              "road_address": "제주시 우도면 우도해안길 783",
              "introduction": "우도 하고수동 해변이 보이는 전망 좋은 카페",
              "latitude": 33.515686,
              "longitude": 126.958084            
            }
          ]
        },
        {
          "day": 2,
          "plans": [
            {
              "contents_id": "CNTS_200000000009866",
              "contents_label": "관광지",
              "title": "목장카페 드르쿰다",
              "road_address": "서귀포시 표선면 번영로 2454",
              "introduction": "탁 트인 경치를 품은 목장카페 드르쿰다는 동물 먹이주기와 승마, 카트, 이색 자전거 체험까지 즐길 거리가 많은 곳이다. 번영로 대로변에 위치해 찾기 쉽고 편안한 카페와 체험장이 한 공간에 있어 이용하기 편하다. 카페 전망창 너머로는 푸른 들판이 펼쳐진다.",
              "latitude": 33.409135,
              "longitude": 126.770148            
            },
            {
              "contents_id": "CNTS_000000000019998",
              "contents_label": "관광지",
              "title": "종달리해안도로",
              "road_address": "제주시 구좌읍 종달리 630-1",
              "introduction": "파란 하늘과 고즈넉한 해변 길, 그리고 파스텔 빛 수국이 가득한 곳",
              "latitude": 33.482853,
              "longitude": 126.901794            
            },
            {
              "contents_id": "CNTS_000000000022377",
              "contents_label": "관광지",
              "title": "성산포항",
              "road_address": "서귀포시 성산읍 성산등용로 130-21",
              "introduction": "서귀포시 성산읍에 있는 연안항",
              "latitude": 33.47211,
              "longitude": 126.9332            
            },
            {
              "contents_id": "CONT_000000000500362",
              "contents_label": "관광지",
              "title": "세화해안도로",
              "road_address": "제주시 구좌읍 구좌로",
              "introduction": "아기자기함과 아름다움에 탄성이 나오는 해안도로",
              "latitude": 33.527126,
              "longitude": 126.88261            
            },
            {
              "contents_id": "CONT_000000000500496",
              "contents_label": "관광지",
              "title": "월정리해변",
              "road_address": "제주시 구좌읍 해맞이해안로 480-1",
              "introduction": "\"달이 머물다 가는’ 제주도의 아름다운 해변",
              "latitude": 33.555809,
              "longitude": 126.796624            
            },
            {
              "contents_id": "CNTS_000000000020242",
              "contents_label": "음식점",
              "title": "곰막식당",
              "road_address": "제주시 구좌읍 구좌해안로 64",
              "introduction": "에메랄드빛 바다와 서우봉이 유명한 함덕서우봉해수욕장에서 조금 더 동쪽으로 달리면 나타나는 작은 마을 동복리. 그곳에 회국수가 맛있는 곰막을 만날 수 있다.",
              "latitude": 33.5569661,
              "longitude": 126.720736            
            },
            {
              "contents_id": "CNTS_000000000001501",
              "contents_label": "음식점",
              "title": "델문도",
              "road_address": "제주시 조천읍 조함해안로 519-10",
              "introduction": "낮에는 카페, 저녁엔 펍. 오션뷰는 ‘덤’!",
              "latitude": 33.54379,
              "longitude": 126.668846            
            },
            {
              "contents_id": "CONT_000000000500693",
              "contents_label": "관광지",
              "title": "함덕해수욕장",
              "road_address": "제주시 조천읍 조함해안로 519-10",
              "introduction": "에메랄드처럼 빛나는 \"한국의 몰디브\"",
              "latitude": 33.54379,
              "longitude": 126.668846            
            },
            {
              "contents_id": "CNTS_200000000012603",
              "contents_label": "음식점",
              "title": "다니쉬",
              "road_address": "제주시 조천읍 함덕16길 56",
              "introduction": "함덕 해수욕장 인근에 위치한 다니쉬는 베이커리 메뉴부터 올데이 브런치까지 즐길 수 있는 조용하고 아늑한 공간이다.",
              "latitude": 33.5421218,
              "longitude": 126.6637469            
            },
            {
              "contents_id": "CNTS_000000000019534",
              "contents_label": "관광지",
              "title": "닭머르해안길",
              "road_address": "제주시 조천읍 신촌북3길 62-1",
              "introduction": "살아있는 생태의 보고",
              "latitude": 33.537785,
              "longitude": 126.61332            
            },
            {
              "contents_id": "CNTS_200000000012969",
              "contents_label": "음식점",
              "title": "섬타르",
              "road_address": "제주시 다랑곶1길 9",
              "introduction": "제주시 노형동에 위치한 섬타르는 드림타워 인근에 위치하고 있으며 제주산 원료를 사용하여 100% 수제타르트를 만들어낸다.",
              "latitude": 33.4875826,
              "longitude": 126.478266            
            },
            {
              "contents_id": "CNTS_200000000010341",
              "contents_label": "관광지",
              "title": "수목원테마공원(야시장길&LED공원)",
              "road_address": "제주시 은수길 69",
              "introduction": "수목원테마파크 소나무 군락지에서 열리는 야시장은 다른 야시장과는 분위기가 사뭇 다르다. 숲 속을 밝힌 LED 조명과 푸드트럭, 프리마켓, 포토존마다 아기자기한 콘텐츠가 넘친다.",
              "latitude": 33.470114,
              "longitude": 126.487592            
            }
          ]
        }
      ]
    }
  ],
  "2n3d":[
    {
      "courseName": "추천1",
      "days":[
        {
          "day": 1,
          "plans": [
            {
              "contents_id": "CNTS_000000000020099",
              "contents_label": "음식점",
              "title": "올래국수",
              "road_address": "제주시 귀아랑길 24 (연동)",
              "introduction": "제주 향토 음식인 고기국수 전문점이다. 2016 KOREAT JEJU TOP 10 선정",
              "latitude": 33.4915,
              "longitude": 126.4973            
            },
            {
              "contents_id": "CNTS_200000000009011",
              "contents_label": "음식점",
              "title": "허니문하우스",
              "road_address": "서귀포시 칠십리로 228-13",
              "introduction": "유럽풍 건축물과 파노라마로 펼쳐지는 바다 경관을 보며 즐기는 베이커리 카페",
              "latitude": 33.2458822,
              "longitude": 126.578581            
            },
            {
              "contents_id": "CNTS_000000000020476",
              "contents_label": "관광지",
              "title": "주상절리대(중문대포해안)",
              "road_address": "서귀포시 이어도로 36-30",
              "introduction": "자연의 신비가 주는 웅장함에 압도되다",
              "latitude": 33.23834,
              "longitude": 126.42586            
            },
            {
              "contents_id": "CNTS_000000000021844",
              "contents_label": "관광지",
              "title": "엉덩물계곡",
              "road_address": "서귀포시 중문관광로 192",
              "introduction": "중문관광단지에 위치한 산책하기 좋은 계곡",
              "latitude": 33.2464,
              "longitude": 126.414536            
            },
            {
              "contentsid": "CNTS_200000000014945",
              "contents_label": "음식점",
              "title": "나성수두리보말톳칼국수",
              "road_address": "서귀포시 천제연로 186-1",
              "introduction": "중문 대표 보말칼국수 맛집",
              "latitude": 33.2516565,
              "longitude": 126.4245582            
            },
            {
              "contents_id": "CONT_000000000500618",
              "contents_label": "관광지",
              "title": "천지연폭포",
              "road_address": "서귀포시 남성중로 2-15",
              "introduction": "하늘과 땅이 만나서 이룬 연못, 천연기념물 제163호, 천연기념물 제27호, 올레6코스",
              "latitude": 33.244717,
              "longitude": 126.55982            
            },
            {
              "contents_id": "CONT_000000000500531",
              "contents_label": "관광지",
              "title": "정방폭포",
              "road_address": "서귀포시 칠십리로214번길 37",
              "introduction": "높은곳에서 바다로 떨어지는 물줄기의 시원, 명승 제43, 올레6코스",
              "latitude": 33.244854,
              "longitude": 126.5718            
            },
            {
              "contents_id": "CNTS_300000000015752",
              "contents_label": "음식점",
              "title": "통나무횟집",
              "road_address": "서귀포시 중앙로42번길 14",
              "introduction": "갓 잡은 제철 생선 활어회",
              "latitude": 33.2484584,
              "longitude": 126.5633385            
            }
          ]
        },
        {
          "day": 2,
          "plans": [
            {
              "contents_id": "CNTS_200000000012725",
              "contents_label": "음식점",
              "title": "미래뷔페정식",
              "road_address": "서귀포시 516로 200",
              "introduction": "516로에 위치한 미래뷔페정식은 다양한 종류의 뷔페메뉴를 정성껏 준비하고 있으며 가격도 착해 인근의 서귀포시민들이 애용하는 식당이다.",
              "latitude": 33.2707807,
              "longitude": 126.585856            
            },
            {
              "contents_id": "CONT_000000000500384",
              "contents_label": "관광지",
              "title": "쇠소깍",
              "road_address": "서귀포시 쇠소깍로 128",
              "introduction": "제주 올레 5코스의 끝이자 6코스의 시작인 바닷물과 민물이 만나는 비밀스런 계곡",
              "latitude": 33.252206,
              "longitude": 126.623119            
            },
            {
              "contents_id": "CONT_000000000500385",
              "contents_label": "관광지",
              "title": "쇠소깍해변",
              "road_address": "서귀포시 하효동",
              "introduction": "효돈천과 검은모래 해변이 만나는 곳",
              "latitude": 33.25114,
              "longitude": 126.62344            
            },
            {
              "contents_id": "CNTS_000000000000975",
              "contents_label": "관광지",
              "title": "녹산로유채꽃길",
              "road_address": "서귀포시 표선면 가시리 산 87-15",
              "introduction": "노란 유채꽃이 아름다운 길",
              "latitude": 33.39823,
              "longitude": 126.71993            
            },
            {
              "contents_id": "CONT_000000000500407",
              "contents_label": "관광지",
              "title": "아부오름",
              "road_address": "제주시 구좌읍 송당리 산 164-1",
              "introduction": "제주의 오름을 좀 더 가깝게 느낄 수 있는 아부오름",
              "latitude": 33.44878,
              "longitude": 126.7774            
            },
            {
              "contents_id": "CNTS_000000000001177",
              "contents_label": "음식점",
              "title": "돌집식당",
              "road_address": "서귀포시 표선면 서성일로 23",
              "introduction": "성읍민속마을에서 맛보는 신선한 흑돼지 구이",
              "latitude": 33.39403,
              "longitude": 126.800644            
            },
            {
              "contents_id": "CNTS_200000000012788",
              "contents_label": "음식점",
              "title": "서귀피안베이커리",
              "road_address": "서귀포시 성산읍 신양로122번길 17(2층)",
              "introduction": "제주도민이 사랑하는 서귀피안 브랜드의 다섯번째 프로젝트 @seogwipean_bakery 를 제주 성산에 선보인다.",
              "latitude": 33.4352867,
              "longitude": 126.9218661            
            },
            {
              "contents_id": "CONT_000000000500349",
              "contents_label": "관광지",
              "title": "성산일출봉(UNESCO 세계자연유산)",
              "road_address": "서귀포시 성산읍 일출로 284-12",
              "introduction": "바다위에 우뚝 솟아난 수성화,유네스코 세계자연유산, 천연기념물 제420호, 올레1코스",
              "latitude": 33.462147,
              "longitude": 126.936424            
            },
            {
              "contents_id": "CNTS_000000000001125",
              "contents_label": "음식점",
              "title": "삼수정",
              "road_address": "서귀포시 성산읍 동류암로 45",
              "introduction": "40년 전통 성산 흑돼지 맛집 삼수정",
              "latitude": 33.448635,
              "longitude": 126.91573            
            },
            {
              "contents_id": "CNTS_200000000012692",
              "contents_label": "음식점",
              "title": "스피닝울프",
              "road_address": "서귀포시 성산읍 동류암로 20",
              "introduction": "플레이스캠프제주 내에 위치한 스피닝울프는 트렌디한 감성 펍으로 즐길 줄 아는 이들이 모여 음악과 음식을 나누며 다양한 맥주, 칵테일을 맛 볼 수 있는 곳이다.",
              "latitude": 33.4499421,
              "longitude": 126.9183775            
            }
          ]
        },
        {
          "day": 3,
          "plans": [
            {
              "contents_id": "CONT_000000000500083",
              "contents_label": "관광지",
              "title": "김녕해수욕장",
              "road_address": "제주시 구좌읍 구좌해안로 237",
              "introduction": "너럭바위 위에 생긴 김녕해수욕장",
              "latitude": 33.557926,
              "longitude": 126.75998            
            },
            {
              "contents_id": "CONT_000000000500182",
              "contents_label": "관광지",
              "title": "만장굴",
              "road_address": "제주시 구좌읍 만장굴길 182",
              "introduction": "세계적인 규모의 용암동굴, 유네스코 지정 세계자연유산",
              "latitude": 33.554819,
              "longitude": 126.796902            
            },
            {
              "contents_id": "CNTS_000000000020242",
              "contents_label": "음식점",
              "title": "곰막식당",
              "road_address": "제주시 구좌읍 구좌해안로 64",
              "introduction": "에메랄드빛 바다와 서우봉이 유명한 함덕서우봉해수욕장에서 조금 더 동쪽으로 달리면 나타나는 작은 마을 동복리. 그곳에 회국수가 맛있는 곰막을 만날 수 있다.",
              "latitude": 33.5569661,
              "longitude": 126.720736            
            },
            {
              "contents_id": "CONT_000000000500335",
              "contents_label": "관광지",
              "title": "서우봉",
              "road_address": "제주시 조천읍 함덕리 169-1",
              "introduction": "푸른 바다와 예쁜 유채꽃밭이 어우러진 멋진 풍경이 있는 곳",
              "latitude": 33.534408,
              "longitude": 126.634246            
            },
            {
              "contents_id": "CONT_000000000500693",
              "contents_label": "관광지",
              "title": "함덕해수욕장",
              "road_address": "제주시 조천읍 조함해안로 519-10",
              "introduction": "에메랄드처럼 빛나는 '한국의 몰디브'",
              "latitude": 33.54379,
              "longitude": 126.668846            
            },
            {
              "contents_id": "CNTS_000000000001501",
              "contents_label": "음식점",
              "title": "델문도",
              "road_address": "제주시 조천읍 조함해안로 519-10",
              "introduction": "낮에는 카페, 저녁엔 펍. 오션뷰는 ‘덤’!",
              "latitude": 33.54379,
              "longitude": 126.668846            
            },
            {
              "contents_id": "CONT_000000000501248",
              "contents_label": "음식점",
              "title": "미소짓는 흑도야지",
              "road_address": "제주시 일주서로 7682",
              "introduction": "제주시 연동에 위치한 흑돼지 전문점",
              "latitude": 33.4938375,
              "longitude": 126.4672444            
            },
            {
              "contents_id": "CNTS_000000000022413",
              "contents_label": "음식점",
              "title": "카페더몹시",
              "road_address": "제주시 월대1길 10",
              "introduction": "외도동 바닷가에 위치한 갤러리카페",
              "latitude": 33.49453,
              "longitude": 126.433655            
            }
          ]
        }
      ]
    }
  ],
  "3n4d":[
    {
      "courseName": "추천1",
      "days":[
        {
          "day": 1,
          "plans": [
            {
              "contents_id": "CNTS_300000000013474",
              "contents_label": "음식점",
              "title": "제주복진 함덕",
              "road_address": "제주시 조천읍 조함해안로 538 (함덕리) 2층",
              "introduction": "저희 복진은 함덕해수욕장 앞, 탁 트인 오션뷰를 보며 여유롭고 맛있는 한끼를 위해 오늘도 정성을 다해 음식을 준비합니다.",
              "latitude": 33.5423356,
              "longitude": 126.6704101            
            },
            {
              "contents_id": "CONT_000000000500693",
              "contents_label": "관광지",
              "title": "함덕해수욕장",
              "road_address": "제주시 조천읍 조함해안로 519-10",
              "introduction": "에메랄드처럼 빛나는 \"한국의 몰디브\"",
              "latitude": 33.54379,
              "longitude": 126.668846            
            },
            {
              "contents_id": "CNTS_200000000010574",
              "contents_label": "음식점",
              "title": "섭지코지화덕피자",
              "road_address": "서귀포시 성산읍 신양로 102",
              "introduction": "흑돼지피자&해물파스타 전문점",
              "latitude": 33.4364202,
              "longitude": 126.9206412            
            },
            {
              "contents_id": "CNTS_300000000015933",
              "contents_label": "음식점",
              "title": "소금바치순이네",
              "road_address": "제주시 구좌읍 해맞이해안로 2196",
              "introduction": "매콤칼칼한 돌문어볶음이 유명한 향토음식점",
              "latitude": 33.5035686,
              "longitude": 126.9126879            
            }
          ]
        },
        {
          "day": 2,
          "plans": [
            {
              "contents_id": "CONT_000000000500343",
              "contents_label": "관광지",
              "title": "섭지코지",
              "road_address": "서귀포시 성산읍 고성리",
              "introduction": "아름다운 해안이 일품인 섭지",
              "latitude": 33.423696,
              "longitude": 126.931046            
            },
            {
              "contents_id": "CNTS_000000000001157",
              "contents_label": "음식점",
              "title": "해월향",
              "road_address": "서귀포시 성산읍 고성오조로 33",
              "introduction": "섭지코지 근처에서 맛보는 제주 흑돼지",
              "latitude": 33.446968,
              "longitude": 126.914444            
            },
            {
              "contents_id": "CNTS_300000000012967",
              "contents_label": "축제/행사",
              "title": "스누피가든 BE KIND TO ANIMALS WEEK",
              "road_address": "제주시 구좌읍 금백조로 930",
              "introduction": "사랑스러운 반려동물과 함께 봄 나들이를 즐길 수 있는 스누피가든",
              "latitude": 33.4435555,
              "longitude": 126.7785412            
            },
            {
              "contents_id": "CNTS_000000000018468",
              "contents_label": "관광지",
              "title": "제주동백수목원(위미리 애기동백나무군락)",
              "road_address": "서귀포시 남원읍 위미중앙로300번길 15",
              "introduction": "붉은 아기동백이 올망종망 피어있는 동백숲",
              "latitude": 33.272907,
              "longitude": 126.67505            
            },
            {
              "contents_id": "CNTS_000000000020476",
              "contents_label": "관광지",
              "title": "주상절리대(중문대포해안)",
              "road_address": "서귀포시 이어도로 36-30",
              "introduction": "자연의 신비가 주는 웅장함에 압도되다",
              "latitude": 33.23834,
              "longitude": 126.42586            
            },
            {
              "contents_id": "CONT_000000000500216",
              "contents_label": "관광지",
              "title": "박물관은 살아있다",
              "road_address": "서귀포시 중문관광로 42",
              "introduction": "다섯개의 착시체험 테마로 이루어진 눈속임테마파크",
              "latitude": 33.255043,
              "longitude": 126.409065            
            },
            {
              "contents_id": "CNTS_200000000013071",
              "contents_label": "음식점",
              "title": "다다익고 정육식당 호텔더본점",
              "road_address": "서귀포시 색달로 25",
              "introduction": "서귀포시 중문에 위치한 다다익고는 백종원호텔로도 유명한 호텔더본에 붙어 있으며 신선하고 흑돼지와 백돼지를 저렴한 가격에 즐길 수 있는 곳이다.",
              "latitude": 33.2814107,
              "longitude": 126.4111118            
            }
          ]
        },
        {
          "day": 3,
          "plans": [
            {
              "contents_id": "CNTS_200000000009031",
              "contents_label": "관광지",
              "title": "윈드1947 카트 테마파크",
              "road_address": "서귀포시 토평공단로 78-27",
              "introduction": "제주도의 아름다운 남쪽 풍경을 품은 제주 최고의 체험형 테마파크",
              "latitude": 33.289717,
              "longitude": 126.588863            
            },
            {
              "contents_id": "CNTS_000000000020097",
              "contents_label": "음식점",
              "title": "kim여사의밥상",
              "road_address": "서귀포시 안덕면 사계남로216번길 24-68",
              "introduction": "인기메뉴는 해물라면",
              "latitude": 33.235237,
              "longitude": 126.31296            
            },
            {
              "contents_id": "CONT_000000000500286",
              "contents_label": "관광지",
              "title": "산방산 랜드",
              "road_address": "서귀포시 안덕면 사계남로216번길 24-32",
              "introduction": "웅장하고 신비로운 산방산을 배경으로 우리나라에서 가장 높게 올라가는 짜릿한 바이킹을 즐기세요",
              "latitude": 33.233696,
              "longitude": 126.311775            
            },
            {
              "contents_id": "CONT_000000000500288",
              "contents_label": "관광지",
              "title": "산방산탄산온천",
              "road_address": "서귀포시 안덕면 사계북로 41번길 192",
              "introduction": "제주 유일, 국내 최고의 탄산온천, 제주 산방산탄산온천",
              "latitude": 33.248665,
              "longitude": 126.29896            
            },
            {
              "contents_id": "CNTS_000000000018363",
              "contents_label": "음식점",
              "title": "우수미회센타",
              "road_address": "제주시 연화로2길 24-1",
              "introduction": "제주도에 최초로 전어를 소개하고 유통한 집이다. 메뉴판은 제철 생선을 중심으로 매일 바뀌며, 간단하지만 먹을것만 있는 반찬들이 등장하는 것이 장점이다.",
              "latitude": 33.4772855,
              "longitude": 126.4899617            
            }
          ]
        },
        {
          "day": 4,
          "plans": [
            {
              "contents_id": "CNTS_200000000012597",
              "contents_label": "음식점",
              "title": "피즈",
              "road_address": "제주시 애월읍 애월로 29",
              "introduction": "버거는 버거 본연 그대로의 맛을 그대로 전달해야 한다는 철학으로 운영되는 피즈는 소고기 100% 패티가 들어간 아메리칸 버거와 피즈버거를 필두로 다양한 종류의 버거를 판매중이다.",
              "latitude": 33.4615296,
              "longitude": 126.3120811            
            },
            {
              "contents_id": "CNTS_200000000012589",
              "contents_label": "음식점",
              "title": "보말보말",
              "road_address": "제주시 애월읍 애월로 57",
              "introduction": "한담해변 인근의 보말요리 전문점. 보말돌솥밥정식, 보말칼국수, 보말죽, 보말미역국, 보말전 등의 다양하고 푸짐한 메뉴들이 있다.",
              "latitude": 33.4637325,
              "longitude": 126.3135701            
            }
          ]
        }
      ]
    }
  ],
  "4n5d":[
    {
      "courseName": "추천1",
      "days":[
        {
          "day": 1,
          "plans": [
            {
              "contents_id": "CNTS_200000000010341",
              "contents_label": "관광지",
              "title": "수목원테마공원(야시장길&LED공원)",
              "road_address": "제주시 은수길 69",
              "introduction": "수목원테마파크 소나무 군락지에서 열리는 야시장은 다른 야시장과는 분위기가 사뭇 다르다. 숲 속을 밝힌 LED 조명과 푸드트럭, 프리마켓, 포토존마다 아기자기한 콘텐츠가 넘친다.",
              "latitude": 33.470114,
              "longitude": 126.487592            
            },
            {
              "contents_id": "CNTS_000000000020476",
              "contents_label": "관광지",
              "title": "주상절리대(중문대포해안)",
              "road_address": "서귀포시 이어도로 36-30",
              "introduction": "자연의 신비가 주는 웅장함에 압도되다",
              "latitude": 33.23834,
              "longitude": 126.42586            
            },
            {
              "contents_id": "CNTS_000000000001107",
              "contents_label": "음식점",
              "title": "목포고을",
              "road_address": "서귀포시 일주서로 968-5",
              "introduction": "서귀포시 중문에 위치한 숙성 흑돼지 전문점. 된장부터 모든 밑반찬을 직접 만든다.",
              "latitude": 33.2814107,
              "longitude": 126.4111118            
            }
          ]
        },
        {
          "day": 2,
          "plans": [
            {
              "contents_id": "CONT_000000000500309",
              "contents_label": "관광지",
              "title": "새별오름",
              "road_address": "제주시 애월읍 봉성리 산 59-8",
              "introduction": "제주 서부 애월에 위치해 있으며 억새가 아름다운 오름",
              "latitude": 33.36723,
              "longitude": 126.35711            
            },
            {
              "contents_id": "CNTS_200000000014631",
              "contents_label": "음식점",
              "title": "불턱버거",
              "road_address": "서귀포시 일주서로570번길 1",
              "introduction": "버거를 사랑하는 사람들이 만드는 버거다운 버거",
              "latitude": 33.2531017,
              "longitude": 126.4481036            
            },
            {
              "contents_id": "CNTS_000000000020159",
              "contents_label": "관광지",
              "title": "애월한담해안산책로",
              "road_address": "제주시 애월읍 곽지리 1359",
              "introduction": "해안선을 따라 걷는 구불구불 해안길.",
              "latitude": 33.45906,
              "longitude": 126.3106            
            },
            {
              "contents_id": "CNTS_200000000007344",
              "contents_label": "관광지",
              "title": "이호테우해수욕장",
              "road_address": "제주시 도리로 20",
              "introduction": "붉은 조랑말과 흰 조랑말의 극명하게 대조되는 색감이 이국적인 풍경을 선사하는 해변",
              "latitude": 33.496185,
              "longitude": 126.455952            
            },
            {
              "contents_id": "CNTS_000000000020099",
              "contents_label": "음식점",
              "title": "올래국수",
              "road_address": "제주시 귀아랑길 24 (연동)",
              "introduction": "제주 향토 음식인 고기국수 전문점이다. 2016 KOREAT JEJU TOP 10 선정",
              "latitude": 33.4915,
              "longitude": 126.4973            
            },
            {
              "contents_id": "CNTS_200000000007676",
              "contents_label": "관광지",
              "title": "신창풍차해안도로",
              "road_address": "제주시 한경면 신창리 1322-1",
              "introduction": "해상풍력단지가 조성되어 있어 해안도로를 따라 줄지어 서 있는 풍차를 만날 수 있는 신창풍차해안도로",
              "latitude": 33.34303,
              "longitude": 126.174604            
            },
            {
              "contents_id": "CONT_000000000500457",
              "contents_label": "관광지",
              "title": "오설록티뮤지엄",
              "road_address": "서귀포시 안덕면 신화역사로 15",
              "introduction": "제주녹차문화의 중심, 차박물관과 카페테리아, 2016 KOREAT JEJU TOP 30 선정",
              "latitude": 33.306394,
              "longitude": 126.29052            
            },
            {
              "contents_id": "CNTS_000000000020971",
              "contents_label": "관광지",
              "title": "산양곶자왈",
              "road_address": "제주시 한경면 청수리 6",
              "introduction": "제주의 옛 생활터전이 있는 곳",
              "latitude": 33.3125,
              "longitude": 126.25193            
            },
            {
              "contents_id": "CNTS_200000000013071",
              "contents_label": "음식점",
              "title": "다다익고 정육식당 호텔더본점",
              "road_address": "서귀포시 색달로 25",
              "introduction": "서귀포시 중문에 위치한 다다익고는 백종원호텔로도 유명한 호텔더본에 붙어 있으며 신선하고 흑돼지와 백돼지를 저렴한 가격에 즐길 수 있는 곳이다.",
              "latitude": 33.2814107,
              "longitude": 126.4111118            
            }
          ]
        },
        {
          "day": 3,
          "plans": [
            {
              "contents_id": "CONT_000000000500539",
              "contents_label": "관광지",
              "title": "제주국제컨벤션센터 icc",
              "road_address": "서귀포시 중문관광로 224",
              "introduction": "제주의 대표적인 MICE 인프라인 제주국제컨벤션센터, 각종 회의 및 전시 행사가 진행된다",
              "latitude": 33.241364,
              "longitude": 126.424515            
            },
            {
              "contents_id": "CONT_000000000500531",
              "contents_label": "관광지",
              "title": "정방폭포",
              "road_address": "서귀포시 칠십리로214번길 37",
              "introduction": "높은곳에서 바다로 떨어지는 물줄기의 시원, 명승 제43, 올레6코스",
              "latitude": 33.244854,
              "longitude": 126.5718            
            },
            {
              "contents_id": "CONT_000000000500384",
              "contents_label": "관광지",
              "title": "쇠소깍",
              "road_address": "서귀포시 쇠소깍로 128",
              "introduction": "제주 올레 5코스의 끝이자 6코스의 시작인 바닷물과 민물이 만나는 비밀스런 계곡",
              "latitude": 33.252206,
              "longitude": 126.623119            
            },
            {
              "contents_id": "CNTS_200000000014961",
              "contents_label": "음식점",
              "title": "제미니국수",
              "road_address": "서귀포시 쇠소깍로 134",
              "introduction": "가마솥에 9시간 이상 끓인 사골육수가 일품인 곳",
              "latitude": 33.2521671,
              "longitude": 126.6227327            
            },
            {
              "contents_id": "CNTS_000000000022459",
              "contents_label": "관광지",
              "title": "산방산 수국",
              "road_address": "서귀포시 안덕면 산방로",
              "introduction": "산방산 근처의 수국길.",
              "latitude": 33.238625,
              "longitude": 126.31461            
            },
            {
              "contents_id": "CONT_000000000500287",
              "contents_label": "관광지",
              "title": "산방굴사",
              "address": "서귀포시 안덕면 사계리 산 16",
              "road_address": "서귀포시 안덕면 사계리 산 16",
              "introduction": "불상이 있어 사찰로 불리는 아름다운 풍광을 가진 산방굴사",
              "latitude": 33.243855,
              "longitude": 126.31332            
            },
            {
              "contents_id": "CONT_000000000500471",
              "contents_label": "관광지",
              "title": "용머리해안",
              "road_address": "서귀포시 안덕면 사계리",
              "introduction": "시간이 보여주는 위대함 속으로, 천연기념물 제526호, 올레10코스",
              "latitude": 33.233427,
              "longitude": 126.313741            
            }
          ]
        },
        {
          "day": 4,
          "plans": [
            {
              "contents_id": "CNTS_000000000020476",
              "contents_label": "관광지",
              "title": "주상절리대(중문대포해안)",
              "road_address": "서귀포시 이어도로 36-30",
              "introduction": "자연의 신비가 주는 웅장함에 압도되다",
              "latitude": 33.23834,
              "longitude": 126.42586            
            },
            {
              "contents_id": "CNTS_300000000012930",
              "contents_label": "음식점",
              "title": "명호마농갈비 중문점",
              "road_address": "서귀포시 중문관광로 289",
              "introduction": "연동에 본점을 둔 제주산 한우갈비 전문점",
              "latitude": 33.2462559,
              "longitude": 126.4290171            
            },
            {
              "contents_id": "CONT_000000000500281",
              "contents_label": "관광지",
              "title": "사려니숲길",
              "road_address": "제주시 조천읍 교래리 산 137-1",
              "introduction": "제주 숨은 비경 31, 삼나무 향기에 취하며 걷는 아름답고 청정한 숲길",
              "latitude": 33.40845,
              "longitude": 126.63976            
            },
            {
              "contents_id": "CONT_000000000500283",
              "contents_label": "관광지",
              "title": "산굼부리",
              "road_address": "제주시 조천읍 비자림로 768",
              "introduction": "사계절마다 다른풍경의 \"분화구 식물원\", 국가지정 문화재 천연기념물 263호",
              "latitude": 33.431621,
              "longitude": 126.690006            
            },
            {
              "contents_id": "CNTS_200000000008028",
              "contents_label": "관광지",
              "title": "진빌레 밭담길",
              "road_address": "제주시 구좌읍 월정리 1400-14",
              "introduction": "제주만의 분위기를 느낄 수 있는 밭담길 코스",
              "latitude": 33.563462,
              "longitude": 126.780247            
            },
            {
              "contents_id": "CNTS_000000000020313",
              "contents_label": "관광지",
              "title": "제주올레 20코스",
              "road_address": "제주시 구좌읍 행원동길 22",
              "introduction": "아름다운 제주바다와 바람의 길",
              "latitude": 33.554977,
              "longitude": 126.7993            
            },
            {
              "contents_id": "CONT_000000000501194",
              "contents_label": "음식점",
              "title": "다래향",
              "road_address": "제주시 조천읍 조함해안로 428-4",
              "introduction": "짬뽕 잘하는 집 다래향",
              "latitude": 33.5457967,
              "longitude": 126.6607519            
            }
          ]
        },
        {
          "day": 5,
          "plans": [
            {
              "contents_id": "CONT_000000000500343",
              "contents_label": "관광지",
              "title": "섭지코지",
              "road_address": "서귀포시 성산읍 고성리",
              "introduction": "아름다운 해안이 일품인 섭지",
              "latitude": 33.423696,
              "longitude": 126.931046            
            },
            {
              "contents_id": "CONT_000000000500349",
              "contents_label": "관광지",
              "title": "성산일출봉(UNESCO 세계자연유산)",
              "road_address": "서귀포시 성산읍 일출로 284-12",
              "introduction": "바다위에 우뚝 솟아난 수성화,유네스코 세계자연유산, 천연기념물 제420호, 올레1코스",
              "latitude": 33.462147,
              "longitude": 126.936424            
            },
            {
              "contents_id": "CNTS_000000000020804",
              "contents_label": "음식점",
              "title": "성산흑돼지두루치기",
              "road_address": "서귀포시 성산읍 한도로 255",
              "introduction": "성산일출봉 인근 흑돼지 돼지두루치기 맛집",
              "latitude": 33.466156,
              "longitude": 126.9348            
            },
            {
              "contents_id": "CNTS_200000000012986",
              "contents_label": "음식점",
              "title": "로스트&헤븐",
              "road_address": "제주시 테우해안로 162",
              "introduction": "이호해수욕장 맞은편에 위치한 카페인 로스트 앤 헤븐은 알록달록한 실내 외부와 이호해수욕장이 한눈에 보이는 오션뷰를 즐길 수 있다.",
              "latitude": 33.496738,
              "longitude": 126.4511395            
            },
            {
              "contents_id": "CNTS_000000000022649",
              "contents_label": "음식점",
              "title": "아일랜드팩토리 풍류",
              "road_address": "제주 제주시 관덕로8길 31",
              "introduction": "루프탑이 있는 원도심 뷰 카페",
              "latitude": 33.5105,
              "longitude": 126.523445            
            }
          ]
        }
      ]
    }
  ],
  "5n6d":[
    {
      "courseName": "추천1",
      "days":[
        {
          "day": 1,
          "plans": [
            {
              "contents_id": "CNTS_200000000012575",
              "contents_label": "음식점",
              "title": "자매국수 본점",
              "road_address": "제주시 항골남길 46",
              "introduction": "이호동 해안가에 위치한 자매국수 본점은 많은 관광객들이 찾는 제주의 손꼽히는 고기국수 맛집이다.",
              "latitude": 33.5168201,
              "longitude": 126.5169905            
            },
            {
              "contents_id": "CNTS_300000000015952",
              "contents_label": "음식점",
              "title": "런던베이글뮤지엄",
              "road_address": "제주시 구좌읍 동복로 85",
              "introduction": "다양한 베이글과 크림치즈, 굿즈가 넘치는 맛집",
              "latitude": 33.5535978,
              "longitude": 126.7155939            
            },
            {
              "contents_id": "CONT_000000000500496",
              "contents_label": "관광지",
              "title": "월정리해변",
              "road_address": "제주시 구좌읍 해맞이해안로 480-1",
              "introduction": "\"달이 머물다 가는’ 제주도의 아름다운 해변",
              "latitude": 33.555809,
              "longitude": 126.796624            
            },
            {
              "contents_id": "CONT_000000000500270",
              "contents_label": "관광지",
              "title": "비자림",
              "road_address": "제주시 구좌읍 비자숲길 55",
              "introduction": "천년의 세월이 녹아든 신비로움 가득한 비자림은 500~800년생 비자나무들이 자생하는 세계적으로도 희귀한 장소다. 벼락 맞은 나무부터 긴 세월이 느껴지는 아름드리 나무까지 다양한 비자나무를 만날 수 있다.",
              "latitude": 33.491318,
              "longitude": 126.811386            
            },
            {
              "contents_id": "CNTS_000000000020985",
              "contents_label": "관광지",
              "title": "쇠와꽃 승마장",
              "road_address": "서귀포시 성산읍 섭지코지로25번길 88-17",
              "introduction": "성산일출봉을 바라보며 승마를 즐기다",
              "latitude": 33.44715,
              "longitude": 126.920296            
            },
            {
              "contents_id": "CNTS_000000000001125",
              "contents_label": "음식점",
              "title": "삼수정",
              "road_address": "서귀포시 성산읍 동류암로 45",
              "introduction": "40년 전통 성산 흑돼지 맛집 삼수정",
              "latitude": 33.448635,
              "longitude": 126.91573            
            }
          ]
        },
        {
          "day": 2,
          "plans": [
            {
              "contents_id": "CNTS_000000000020853",
              "contents_label": "음식점",
              "title": "맛나식당",
              "road_address": "서귀포시 성산읍 동류암로 43",
              "introduction": "갈치조림이 유명한 성산일출봉 근처 맛집",
              "latitude": 33.44859,
              "longitude": 126.91591            
            },
            {
              "contents_id": "CNTS_000000000018413",
              "contents_label": "관광지",
              "title": "광치기해변",
              "road_address": "서귀포시 성산읍 섭지코지로 63",
              "introduction": "성산일출봉과 독특한 해안지형이 어우러져 이색적인 풍광을 간직한 곳",
              "latitude": 33.452453,
              "longitude": 126.924581            
            },
            {
              "contents_id": "CONT_000000000500349",
              "contents_label": "관광지",
              "title": "성산일출봉(UNESCO 세계자연유산)",
              "road_address": "서귀포시 성산읍 일출로 284-12",
              "introduction": "바다위에 우뚝 솟아난 수성화,유네스코 세계자연유산, 천연기념물 제420호, 올레1코스",
              "latitude": 33.462147,
              "longitude": 126.936424            
            },
            {
              "contents_id": "CNTS_000000000020987",
              "contents_label": "관광지",
              "title": "오조포구",
              "road_address": "서귀포시 성산읍 오조리",
              "introduction": "오조리 마을의 한적한 포구",
              "latitude": 33.462772,
              "longitude": 126.92111            
            },
            {
              "contents_id": "CNTS_200000000008079",
              "contents_label": "음식점",
              "title": "묘한상점 묘한카페",
              "road_address": "서귀포시 성산읍 시흥상동로 87",
              "introduction": "성산 시흥리 조용한 마을에 위치한 카페",
              "latitude": 33.4765014,
              "longitude": 126.8962962            
            },
            {
              "contents_id": "CNTS_000000000020003",
              "contents_label": "관광지",
              "title": "제주커피박물관 바움 Baum",
              "road_address": "서귀포시 성산읍 서성일로1168번길 89-17",
              "introduction": "나무, 숲과 함께 다채로운 커피의 향을 즐길 수 있는 커피박물관",
              "latitude": 33.4398,
              "longitude": 126.89912            
            },
            {
              "contents_id": "CNTS_000000000001158",
              "contents_label": "관광지",
              "title": "메이즈랜드",
              "road_address": "제주시 구좌읍 비자림로 2134-47",
              "introduction": "돌, 바람, 여자, 제주의 삼다를 녹인 미로공원",
              "latitude": 33.48875,
              "longitude": 126.80093            
            },
            {
              "contents_id": "CNTS_000000000000975",
              "contents_label": "관광지",
              "title": "녹산로유채꽃길",
              "road_address": "서귀포시 표선면 가시리 산 87-15",
              "introduction": "노란 유채꽃이 아름다운 길",
              "latitude": 33.39823,
              "longitude": 126.71993            
            },
            {
              "contents_id": "CNTS_200000000008003",
              "contents_label": "관광지",
              "title": "동백포레스트",
              "road_address": "서귀포시 남원읍 신례리 1767",
              "introduction": "사진찍기 좋은 신례리 동백나무 군락지",
              "latitude": 33.299995,
              "longitude": 126.629794            
            },
            {
              "contents_id": "CNTS_000000000020123",
              "contents_label": "음식점",
              "title": "오는정김밥",
              "road_address": "서귀포시 동문동로 2",
              "introduction": "서귀포에 위치한 쫄깃한 튀김의 식감이 살아있는 김밥집.",
              "latitude": 33.249676,
              "longitude": 126.56757            
            },
            {
              "contents_id": "CNTS_200000000009011",
              "contents_label": "음식점",
              "title": "허니문하우스",
              "road_address": "서귀포시 칠십리로 228-13",
              "introduction": "유럽풍 건축물과 파노라마로 펼쳐지는 바다 경관을 보며 즐기는 베이커리 카페",
              "latitude": 33.2458822,
              "longitude": 126.578581            
            },
            {
              "contents_id": "CONT_000000000500312",
              "contents_label": "관광지",
              "title": "새연교",
              "road_address": "서귀포시 서홍동 707-4",
              "introduction": "새섬으로 가는 통로, \"새\"로운 인\"연\"을 만들어가는 다리",
              "latitude": 33.238186,
              "longitude": 126.55907            
            },
            {
              "contents_id": "CONT_000000000500310",
              "contents_label": "관광지",
              "title": "새섬",
              "road_address": "서귀포시 남성중로 40",
              "introduction": "섬 속의 섬. 바다를 향한 산책",
              "latitude": 33.236473,
              "longitude": 126.561591            
            },
            {
              "contents_id": "CNTS_000000000020379",
              "contents_label": "음식점",
              "title": "기억나는집",
              "road_address": "서귀포시 중앙로 6",
              "introduction": "한 번 맛보면 계속 기억나는 집",
              "latitude": 33.245117,
              "longitude": 126.56229            
            },
            {
              "contents_id": "CNTS_300000000015702",
              "contents_label": "음식점",
              "title": "소문난 순대족발",
              "road_address": "서귀포시 중앙로42번길 22",
              "introduction": "30년 전통 순대, 족발",
              "latitude": 33.2485659,
              "longitude": 126.563926            
            },
            {
              "contents_id": "CNTS_000000000019242",
              "contents_label": "음식점",
              "title": "유동커피",
              "road_address": "서귀포시 태평로 406-2",
              "introduction": "A, B, C 타입별 커피를 고를 수 있고 검증된 커피 맛으로 승부하는 유동 커피",
              "latitude": 33.24449,
              "longitude": 126.563896            
            }
          ]
        },
        {
          "day": 3,
          "plans": [
            {
              "contents_id": "CNTS_200000000012716",
              "contents_label": "음식점",
              "title": "고씨네천지국수",
              "road_address": "서귀포시 중앙로79번길 4",
              "introduction": "서귀포에 위치한 고씨네천지국수는 오직 제주도에만 존재하는 특별한 음식, 멸고국수를 판매하고 있으며 올레시장과 가까운 거리에 위치해 있다.",
              "latitude": 33.2517365,
              "longitude": 126.560833            
            },
            {
              "contents_id": "CONT_000000000500050",
              "contents_label": "관광지",
              "title": "고근산(고공산)",
              "road_address": "서귀포시 고근산로202번길 48",
              "introduction": "눈앞에 펼쳐지는 범섬 앞바다의 장관",
              "latitude": 33.266797,
              "longitude": 126.513744            
            },
            {
              "contents_id": "CNTS_200000000013060",
              "contents_label": "음식점",
              "title": "60빈스",
              "road_address": "서귀포시 태평로120번길 29-2",
              "introduction": "제주 올레길 7코스를 걷다보면 만나 볼 수 있는 60빈스는 아름다운 정원과 눈 앞에 펼쳐진 푸른 바다를 가까이 느낄 수 있는 곳이다.",
              "latitude": 33.2419106,
              "longitude": 126.5361713            
            },
            {
              "contents_id": "CNTS_000000000018406",
              "contents_label": "관광지",
              "title": "법환포구",
              "road_address": "서귀포시 막숙포로37번길 2",
              "introduction": "최영 장군이 막사를 쳤던 포구",
              "latitude": 33.237774,
              "longitude": 126.51579            
            },
            {
              "contents_id": "CONT_000000000501371",
              "contents_label": "음식점",
              "title": "중문신라원",
              "road_address": "서귀포시 천제연로 107",
              "introduction": "중문 관광단지에 위치한 말고기, 흑돼지, 갈치, 전복죽 등을 판매하는 향토음식전문점",
              "latitude": 33.254517,
              "longitude": 126.41738            
            }
          ]
        },
        {
          "day": 4,
          "plans": [
            {
              "contents_id": "CNTS_000000000018455",
              "contents_label": "관광지",
              "title": "중문관광단지",
              "road_address": "서귀포시 중문관광로72번길 35",
              "introduction": "볼거리와 체험이 가득한 중문관광단지",
              "latitude": 33.248535,
              "longitude": 126.41039            
            },
            {
              "contents_id": "CNTS_200000000013071",
              "contents_label": "음식점",
              "title": "다다익고 정육식당 호텔더본점",
              "road_address": "서귀포시 색달로 25",
              "introduction": "서귀포시 중문에 위치한 다다익고는 백종원호텔로도 유명한 호텔더본에 붙어 있으며 신선하고 흑돼지와 백돼지를 저렴한 가격에 즐길 수 있는 곳이다.",
              "latitude": 33.2814107,
              "longitude": 126.4111118            
            },
            {
              "contents_id": "CNTS_200000000014889",
              "contents_label": "음식점",
              "title": "드림회센터",
              "road_address": "서귀포시 중정로61번길 14",
              "introduction": "원하는 조합을 골라 주문할 수 있는 포장 모둠회",
              "latitude": 33.2490668,
              "longitude": 126.562968            
            }
          ]
        },
        {
          "day": 5,
          "plans": [
            {
              "contents_id": "CONT_000000000501275",
              "contents_label": "음식점",
              "title": "생원전복",
              "road_address": "서귀포시 안덕면 산방로 7",
              "introduction": "찐 로컬 전복 맛집... ‘생원전복’ ... 산방산뷰는 ‘덤’",
              "latitude": 33.245869,
              "longitude": 126.3307927            
            },
            {
              "contents_id": "CONT_000000000500471",
              "contents_label": "관광지",
              "title": "용머리해안",
              "road_address": "서귀포시 안덕면 사계리",
              "introduction": "시간이 보여주는 위대함 속으로, 천연기념물 제526호, 올레10코스",
              "latitude": 33.233427,
              "longitude": 126.313741            
            },
            {
              "contents_id": "CONT_000000000500285",
              "contents_label": "관광지",
              "title": "산방산",
              "road_address": "서귀포시 안덕면 사계리 산 16",
              "introduction": "설문대할망이 한라산 꼭대기를 뽑아 던져놓았다는 산방산, 명승 제77호, 천연기념물 제376호, 올레10코스",
              "latitude": 33.236614,
              "longitude": 126.31289            
            },
            {
              "contents_id": "CONT_000000000500378",
              "contents_label": "관광지",
              "title": "송악산",
              "road_address": "서귀포시 대정읍 송악관광로 421-1",
              "introduction": "서남부의 절경을 선사하는 산방산의 이웃산",
              "latitude": 33.207714,
              "longitude": 126.29099            
            },
            {
              "contents_id": "CNTS_200000000012676",
              "contents_label": "음식점",
              "title": "커피스케치",
              "road_address": "서귀포시 안덕면 사계남로216번길 24-32",
              "introduction": "용머리해안 인근에 위치한 커피스케치는 용머리해안과 산방산, 형제섬, 송악산, 마라도까지 한눈에 담을 수 있는 유일한 카페로 맛있는 커피와 음료, 디저트까지 사계리 앞바다를 마음껏 느낄 수 있는 오션뷰 카페이다.",
              "latitude": 33.2333689,
              "longitude": 126.3133602            
            },
            {
              "contents_id": "CONT_000000000500702",
              "contents_label": "관광지",
              "title": "환상숲 곶자왈공원",
              "road_address": "제주시 한경면 녹차분재로 594-1",
              "introduction": "제주도의 진짜 자연을 볼 수 있는 에코힐링여행",
              "latitude": 33.322342,
              "longitude": 126.26323            
            },
            {
              "contents_id": "CONT_000000000500697",
              "contents_label": "관광지",
              "title": "협재해수욕장",
              "road_address": "제주시 한림읍 한림로 329-10",
              "introduction": "비양도, 은모래, 바다가 그려낸 그림같이 아름다운 해변",
              "latitude": 33.393845,
              "longitude": 126.239716            
            },
            {
              "contents_id": "CNTS_000000000018375",
              "contents_label": "음식점",
              "title": "우진해장국",
              "road_address": "제주시 서사로 11",
              "introduction": "제주 향토 음식인 고사리 해장국을 만날 수 있는 한식당",
              "latitude": 33.5114884,
              "longitude": 126.5200864            
            },
            {
              "contents_id": "CNTS_200000000012626",
              "contents_label": "음식점",
              "title": "제주스",
              "road_address": "제주시 동문로 4 1호",
              "introduction": "제주 동문재래시장 내 위치한 제주스는 제주와 주스의 합성어로 오직 제주에서만 맛볼 수 있는 제주스런 주스를 만들어내는 카페이다.",
              "latitude": 33.5128008,
              "longitude": 126.5269479            
            }
          ]
        },
        {
          "day": 6,
          "plans": [
            {
              "contents_id": "CNTS_200000000012650",
              "contents_label": "음식점",
              "title": "오현불백",
              "road_address": "제주시 성지로 58-2",
              "introduction": "한치를 품은 돼지불백과 낙지를 품은 돼지불백의 대표메뉴와 소불고기 전골을 주문할 수 있다. 또한 기본 반찬들이 훌륭하며 양념게장의 경우 따로 포장구매가 가능하다.",
              "latitude": 33.5110174,
              "longitude": 126.5296752            
            },
            {
              "contents_id": "CNTS_300000000013153",
              "contents_label": "음식점",
              "title": "착한제주고등어",
              "road_address": "제주시 동문로11길 5",
              "introduction": "맛도 가격도 착한 동문시장 근처 혼밥 가능 식당",
              "latitude": 33.5135933,
              "longitude": 126.531217            
            },
            {
              "contents_id": "CONT_000000000500469",
              "contents_label": "관광지",
              "title": "용두암",
              "road_address": "제주시 용두암길 15",
              "introduction": "용이 승천하려다 뜻을 이루지 못했다는 전설을 담고 있는 , 제주도기념물 제57, 올레17코스",
              "latitude": 33.514962,
              "longitude": 126.511687            
            },
            {
              "contents_id": "CNTS_200000000008020",
              "contents_label": "관광지",
              "title": "어영공원",
              "road_address": "제주시 서해안로 452 (맞은편 공원)",
              "introduction": "용담이호해안도로에 조성된 공원이자 쉼터",
              "latitude": 33.51774,
              "longitude": 126.487855            
            },
            {
              "contents_id": "CNTS_300000000015970",
              "contents_label": "음식점",
              "title": "홉히",
              "road_address": "제주시 서해안로 468-2",
              "introduction": "산미가 있어 산뜻한 디카페인 커피",
              "latitude": 33.5185734,
              "longitude": 126.4892815            
            }
          ]
        }
      ]
    }
  ]
}

























